{
"type": "FeatureCollection",
"name": "pkt_odbioru_paczek",
"crs": { "type": "name", "properties": { "name": "urn:ogc:def:crs:OGC:1.3:CRS84" } },
"features": [
{ "type": "Feature", "properties": { "L.p.": 1, "X": 52.807786334699713, "Y": 17.229981254622238, "Adres": "ul. 11 Listopada 2; 62-100 Wągrowiec", "Typ": "Automat paczkowy", "Nazwa": "One Box by Allegro", "Operator usługi": "Allegro", "Godziny otwarcia": "Całodobowy 24/7", "Opis lokalizacji": "Automat zlokalizowany przy sklepie rybnym" }, "geometry": { "type": "Point", "coordinates": [ 17.229981254622238, 52.807786334699713 ] } },
{ "type": "Feature", "properties": { "L.p.": 2, "X": 52.807810655255096, "Y": 17.229898106144418, "Adres": "ul. 11 Listopada 2; 62-100 Wągrowiec", "Typ": "Automat paczkowy", "Nazwa": "DHL BOX 24/7", "Operator usługi": "DHL", "Godziny otwarcia": "Całodobowy 24/7", "Opis lokalizacji": "Automat zlokalizowany przy sklepie rybnym" }, "geometry": { "type": "Point", "coordinates": [ 17.229898106144418, 52.807810655255096 ] } },
{ "type": "Feature", "properties": { "L.p.": 3, "X": 52.807848757431124, "Y": 17.229949738666939, "Adres": "ul. 11 Listopada 3; 62-100 Wągrowiec", "Typ": "Automat paczkowy", "Nazwa": "ORLEN Paczka", "Operator usługi": "ORLEN Paczka", "Godziny otwarcia": "Całodobowy 24/7", "Opis lokalizacji": "Automat zlokalizowany przy sklepie Chata Polska" }, "geometry": { "type": "Point", "coordinates": [ 17.229949738666939, 52.807848757431124 ] } },
{ "type": "Feature", "properties": { "L.p.": 4, "X": 52.808991198743428, "Y": 17.232607806230604, "Adres": "ul. 11 Listopada 16; 62-100 Wągrowiec", "Typ": "Automat paczkowy", "Nazwa": "Paczkomat InPost", "Operator usługi": "InPost", "Godziny otwarcia": "Całodobowy 24/7", "Opis lokalizacji": "Automat zlokalizowany przy sklepie Lidl" }, "geometry": { "type": "Point", "coordinates": [ 17.232607806230604, 52.808991198743428 ] } },
{ "type": "Feature", "properties": { "L.p.": 5, "X": 52.804015636698189, "Y": 17.228818797758532, "Adres": "ul. 11 Listopada 22; 62-100 Wągrowiec", "Typ": "Automat paczkowy", "Nazwa": "Paczkomat InPost", "Operator usługi": "InPost", "Godziny otwarcia": "Całodobowy 24/7", "Opis lokalizacji": "Automat zlokalizowany przy sklepie Bricomarche" }, "geometry": { "type": "Point", "coordinates": [ 17.228818797758532, 52.804015636698189 ] } },
{ "type": "Feature", "properties": { "L.p.": 6, "X": 52.80451946237612, "Y": 17.227285909937791, "Adres": "ul. 11 Listopada 96a; 62-100 Wągrowiec", "Typ": "Automat paczkowy", "Nazwa": "DPD Pickup", "Operator usługi": "DPD", "Godziny otwarcia": "Całodobowy 24/7", "Opis lokalizacji": "Automat zlokalizowany przy sklepie Bystry" }, "geometry": { "type": "Point", "coordinates": [ 17.227285909937791, 52.80451946237612 ] } },
{ "type": "Feature", "properties": { "L.p.": 7, "X": 52.808985801243232, "Y": 17.182064410536405, "Adres": "ul. Bobrownicka 15D; 62-100 Wągrowiec", "Typ": "Automat paczkowy", "Nazwa": "DHL BOX 24/7", "Operator usługi": "DHL", "Godziny otwarcia": "Całodobowy 24/7", "Opis lokalizacji": "Automat zlokalizowany przy sklepie wielobranżowym" }, "geometry": { "type": "Point", "coordinates": [ 17.182064410536405, 52.808985801243232 ] } },
{ "type": "Feature", "properties": { "L.p.": 8, "X": 52.809460180120844, "Y": 17.181097494426517, "Adres": "ul. Bobrownicka 32; 62-100 Wągrowiec", "Typ": "Automat paczkowy", "Nazwa": "Paczkomat InPost", "Operator usługi": "InPost", "Godziny otwarcia": "Całodobowy 24/7", "Opis lokalizacji": "Automat zlokalizowany przy sklepie spożywczym " }, "geometry": { "type": "Point", "coordinates": [ 17.181097494426517, 52.809460180120844 ] } },
{ "type": "Feature", "properties": { "L.p.": 9, "X": 52.810080617894023, "Y": 17.175315297087746, "Adres": "ul. Bobrownicka 43; 62-100 Wągrowiec", "Typ": "Automat paczkowy", "Nazwa": "Paczkomat InPost", "Operator usługi": "InPost", "Godziny otwarcia": "Całodobowy 24/7", "Opis lokalizacji": "Automat zlokalizowany przy sklepie Dino" }, "geometry": { "type": "Point", "coordinates": [ 17.175315297087746, 52.810080617894023 ] } },
{ "type": "Feature", "properties": { "L.p.": 10, "X": 52.807712739782851, "Y": 17.202599920216326, "Adres": "ul. Bydgoska 9; 62-100 Wągrowiec", "Typ": "Automat paczkowy", "Nazwa": "Pocztex", "Operator usługi": "Poczta Polska", "Godziny otwarcia": "Całodobowy 24/7", "Opis lokalizacji": "Automat zlokalizowany na parkingu przy sklepie Biedronka" }, "geometry": { "type": "Point", "coordinates": [ 17.202599920216326, 52.807712739782851 ] } },
{ "type": "Feature", "properties": { "L.p.": 11, "X": 52.803195059781466, "Y": 17.201335552287052, "Adres": "ul. Gnieźnieńska 44; 62-100 Wągrowiec", "Typ": "Automat paczkowy", "Nazwa": "Paczkomat InPost", "Operator usługi": "InPost", "Godziny otwarcia": "Całodobowy 24/7", "Opis lokalizacji": "Automat zlokalizowany obok firmy AutoLack oraz sklepu medycznego" }, "geometry": { "type": "Point", "coordinates": [ 17.201335552287052, 52.803195059781466 ] } },
{ "type": "Feature", "properties": { "L.p.": 12, "X": 52.81302780414957, "Y": 17.208197212640169, "Adres": "ul. Jana Kasprowicza 54; 62-100 Wągrowiec", "Typ": "Automat paczkowy", "Nazwa": "DPD Pickup", "Operator usługi": "DPD", "Godziny otwarcia": "Całodobowy 24/7", "Opis lokalizacji": "Automat zlokalizowany przy sklepie Biedronka" }, "geometry": { "type": "Point", "coordinates": [ 17.208197212640169, 52.81302780414957 ] } },
{ "type": "Feature", "properties": { "L.p.": 13, "X": 52.812974748069394, "Y": 17.208264394754131, "Adres": "ul. Jana Kasprowicza 54; 62-100 Wągrowiec", "Typ": "Automat paczkowy", "Nazwa": "DHL BOX 24/7", "Operator usługi": "DHL", "Godziny otwarcia": "Całodobowy 24/7", "Opis lokalizacji": "Automat zlokalizowany przy sklepie Biedronka" }, "geometry": { "type": "Point", "coordinates": [ 17.208264394754131, 52.812974748069394 ] } },
{ "type": "Feature", "properties": { "L.p.": 14, "X": 52.813071365193601, "Y": 17.208265490517981, "Adres": "ul. Jana Kasprowicza 54; 62-100 Wągrowiec", "Typ": "Automat paczkowy", "Nazwa": "Pocztex", "Operator usługi": "Poczta Polska", "Godziny otwarcia": "Całodobowy 24/7", "Opis lokalizacji": "Automat zlokalizowany przy sklepie Biedronka" }, "geometry": { "type": "Point", "coordinates": [ 17.208265490517981, 52.813071365193601 ] } },
{ "type": "Feature", "properties": { "L.p.": 15, "X": 52.808311748679913, "Y": 17.210505294456095, "Adres": "ul. Janowiecka 27; 62-100 Wągrowiec", "Typ": "Automat paczkowy", "Nazwa": "Paczkomat InPost", "Operator usługi": "InPost", "Godziny otwarcia": "Całodobowy 24/7", "Opis lokalizacji": "Automat zlokalizowany przy stacji paliwowej Shell" }, "geometry": { "type": "Point", "coordinates": [ 17.210505294456095, 52.808311748679913 ] } },
{ "type": "Feature", "properties": { "L.p.": 16, "X": 52.804353779862446, "Y": 17.22689211778615, "Adres": "ul. Janowiecka 96; 62-100 Wągrowiec", "Typ": "Automat paczkowy", "Nazwa": "ORLEN Paczka", "Operator usługi": "ORLEN Paczka", "Godziny otwarcia": "Całodobowy 24/7", "Opis lokalizacji": "Automat zlokalizowany na parkingu przy sklepie JYSK" }, "geometry": { "type": "Point", "coordinates": [ 17.22689211778615, 52.804353779862446 ] } },
{ "type": "Feature", "properties": { "L.p.": 17, "X": 52.804326462161669, "Y": 17.22753699428748, "Adres": "ul. Janowiecka 96A; 62-100 Wągrowiec", "Typ": "Automat paczkowy", "Nazwa": "Paczkomat InPost", "Operator usługi": "InPost", "Godziny otwarcia": "Całodobowy 24/7", "Opis lokalizacji": "Automat zlokalizowany na parkingu przy sklepie JYSK" }, "geometry": { "type": "Point", "coordinates": [ 17.22753699428748, 52.804326462161669 ] } },
{ "type": "Feature", "properties": { "L.p.": 18, "X": 52.812710479673846, "Y": 17.213476177400658, "Adres": "ul. Kcyńska 20; 62-100 Wągrowiec", "Typ": "Automat paczkowy", "Nazwa": "Paczkomat InPost", "Operator usługi": "InPost", "Godziny otwarcia": "Całodobowy 24/7", "Opis lokalizacji": "Automat zlokalizowany przy sklepie Lidl" }, "geometry": { "type": "Point", "coordinates": [ 17.213476177400658, 52.812710479673846 ] } },
{ "type": "Feature", "properties": { "L.p.": 19, "X": 52.812878984166289, "Y": 17.214485189612539, "Adres": "ul. Kcyńska 20a; 62-100 Wągrowiec", "Typ": "Automat paczkowy", "Nazwa": "DPD Pickup", "Operator usługi": "DPD", "Godziny otwarcia": "Całodobowy 24/7", "Opis lokalizacji": "Automat zlokalizowany przy sklepie Aldi" }, "geometry": { "type": "Point", "coordinates": [ 17.214485189612539, 52.812878984166289 ] } },
{ "type": "Feature", "properties": { "L.p.": 20, "X": 52.813090754515834, "Y": 17.214209564938379, "Adres": "ul. Kcyńska 20a; 62-100 Wągrowiec", "Typ": "Automat paczkowy", "Nazwa": "DHL BOX 24/7", "Operator usługi": "DHL", "Godziny otwarcia": "Całodobowy 24/7", "Opis lokalizacji": "Automat zlokalizowany przy sklepie Aldi" }, "geometry": { "type": "Point", "coordinates": [ 17.214209564938379, 52.813090754515834 ] } },
{ "type": "Feature", "properties": { "L.p.": 21, "X": 52.81572172945576, "Y": 17.218521478232091, "Adres": "ul. Kcyńska 56; 62-100 Wągrowiec", "Typ": "Automat paczkowy", "Nazwa": "ORLEN Paczka", "Operator usługi": "ORLEN Paczka", "Godziny otwarcia": "Całodobowy 24/7", "Opis lokalizacji": "Automat zlokalizowany przy stacji paliwowej Orlen" }, "geometry": { "type": "Point", "coordinates": [ 17.218521478232091, 52.81572172945576 ] } },
{ "type": "Feature", "properties": { "L.p.": 22, "X": 52.807583651392115, "Y": 17.230775725177445, "Adres": "ul. Ks. Wróblewskiego 2; 62-100 Wągrowiec", "Typ": "Automat paczkowy", "Nazwa": "Paczkomat InPost", "Operator usługi": "InPost", "Godziny otwarcia": "Całodobowy 24/7", "Opis lokalizacji": "Automat zlokalizowany przy sklepie Bimex/PSB Mrówka" }, "geometry": { "type": "Point", "coordinates": [ 17.230775725177445, 52.807583651392115 ] } },
{ "type": "Feature", "properties": { "L.p.": 23, "X": 52.803753607566549, "Y": 17.201538978454987, "Adres": "ul. Księdza Wujka 16; 62-100 Wągrowiec", "Typ": "Automat paczkowy", "Nazwa": "DPD Pickup", "Operator usługi": "DPD", "Godziny otwarcia": "Całodobowy 24/7", "Opis lokalizacji": "Automat zlokalizowany przy sklepie spożywczym " }, "geometry": { "type": "Point", "coordinates": [ 17.201538978454987, 52.803753607566549 ] } },
{ "type": "Feature", "properties": { "L.p.": 24, "X": 52.814454521016586, "Y": 17.177662463758612, "Adres": "ul. Leśna 39; 62-100 Wągrowiec", "Typ": "Automat paczkowy", "Nazwa": "Paczkomat InPost", "Operator usługi": "InPost", "Godziny otwarcia": "Całodobowy 24/7", "Opis lokalizacji": "Automat zlokalizowany przy sklepie Bimex/PSB Mrówka przy Sklepie Polskim" }, "geometry": { "type": "Point", "coordinates": [ 17.177662463758612, 52.814454521016586 ] } },
{ "type": "Feature", "properties": { "L.p.": 25, "X": 52.813259356768484, "Y": 17.210169052441415, "Adres": "ul. Lipowa 12; 62-100 Wągrowiec", "Typ": "Automat paczkowy", "Nazwa": "ORLEN Paczka", "Operator usługi": "ORLEN Paczka", "Godziny otwarcia": "Całodobowy 24/7", "Opis lokalizacji": "Automat zlokalizowany przy Centrum Handlowym Karuzela" }, "geometry": { "type": "Point", "coordinates": [ 17.210169052441415, 52.813259356768484 ] } },
{ "type": "Feature", "properties": { "L.p.": 26, "X": 52.816400881055692, "Y": 17.206970095807563, "Adres": "ul. Lipowa 40; 62-100 Wągrowiec", "Typ": "Automat paczkowy", "Nazwa": "Paczkomat InPost", "Operator usługi": "InPost", "Godziny otwarcia": "Całodobowy 24/7", "Opis lokalizacji": "Automat zlokalizowany przy domu jednorodzinnym" }, "geometry": { "type": "Point", "coordinates": [ 17.206970095807563, 52.816400881055692 ] } },
{ "type": "Feature", "properties": { "L.p.": 27, "X": 52.804716802149272, "Y": 17.219485884360989, "Adres": "ul. Franciszka Łakińskiego 1; 62-100 Wągrowiec", "Typ": "Automat paczkowy", "Nazwa": "Paczkomat InPost", "Operator usługi": "InPost", "Godziny otwarcia": "Całodobowy 24/7", "Opis lokalizacji": "Automat zlokalizowany przy sklepie spożywczym" }, "geometry": { "type": "Point", "coordinates": [ 17.219485884360989, 52.804716802149272 ] } },
{ "type": "Feature", "properties": { "L.p.": 28, "X": 52.812784814145573, "Y": 17.203555953757963, "Adres": "ul. Mieczysława Jeżyka 9; 62-100 Wągrowiec", "Typ": "Automat paczkowy", "Nazwa": "DHL BOX 24/7", "Operator usługi": "DHL", "Godziny otwarcia": "Całodobowy 24/7", "Opis lokalizacji": "Automat zlokalizowany przy sklepie ogólnospożywczym" }, "geometry": { "type": "Point", "coordinates": [ 17.203555953757963, 52.812784814145573 ] } },
{ "type": "Feature", "properties": { "L.p.": 29, "X": 52.812470737989443, "Y": 17.20756704606104, "Adres": "ul. Mieczysława Jeżyka 50; 62-100 Wągrowiec", "Typ": "Automat paczkowy", "Nazwa": "Paczkomat InPost", "Operator usługi": "InPost", "Godziny otwarcia": "Całodobowy 24/7", "Opis lokalizacji": "Automat zlokalizowany przed budynkiem Spółdzielni Mieszkaniowej w Wągrowcu" }, "geometry": { "type": "Point", "coordinates": [ 17.20756704606104, 52.812470737989443 ] } },
{ "type": "Feature", "properties": { "L.p.": 30, "X": 52.817833467233363, "Y": 17.211308972192416, "Adres": "ul. Mikołaja Reja 59; 62-100 Wągrowiec", "Typ": "Automat paczkowy", "Nazwa": "Paczkomat InPost", "Operator usługi": "InPost", "Godziny otwarcia": "Całodobowy 24/7", "Opis lokalizacji": "Automat zlokalizowany przy sklepie Twój Market" }, "geometry": { "type": "Point", "coordinates": [ 17.211308972192416, 52.817833467233363 ] } },
{ "type": "Feature", "properties": { "L.p.": 31, "X": 52.817833467233363, "Y": 17.211066015242483, "Adres": "ul. Mikołaja Reja 59; 62-100 Wągrowiec", "Typ": "Automat paczkowy", "Nazwa": "One Box by Allegro", "Operator usługi": "Allegro", "Godziny otwarcia": "Całodobowy 24/7", "Opis lokalizacji": "Automat zlokalizowany przy sklepie Twój Market" }, "geometry": { "type": "Point", "coordinates": [ 17.211066015242483, 52.817833467233363 ] } },
{ "type": "Feature", "properties": { "L.p.": 32, "X": 52.81791080579633, "Y": 17.211442505783218, "Adres": "ul. Mikołaja Reja 59; 62-100 Wągrowiec", "Typ": "Automat paczkowy", "Nazwa": "DHL BOX 24/7", "Operator usługi": "DHL", "Godziny otwarcia": "Całodobowy 24/7", "Opis lokalizacji": "Automat zlokalizowany przy sklepie Twój Market" }, "geometry": { "type": "Point", "coordinates": [ 17.211442505783218, 52.81791080579633 ] } },
{ "type": "Feature", "properties": { "L.p.": 33, "X": 52.817830104684006, "Y": 17.210919499219244, "Adres": "ul. Mikołaja Reja 59; 62-100 Wągrowiec", "Typ": "Automat paczkowy", "Nazwa": "Pocztex", "Operator usługi": "Poczta Polska", "Godziny otwarcia": "Całodobowy 24/7", "Opis lokalizacji": "Automat zlokalizowany przy sklepie Twój Market" }, "geometry": { "type": "Point", "coordinates": [ 17.210919499219244, 52.817830104684006 ] } },
{ "type": "Feature", "properties": { "L.p.": 34, "X": 52.815533074670661, "Y": 17.216503431541959, "Adres": "ul. Mikołaja Reja 81; 62-100 Wągrowiec", "Typ": "Automat paczkowy", "Nazwa": "DPD Pickup", "Operator usługi": "DPD", "Godziny otwarcia": "Całodobowy 24/7", "Opis lokalizacji": "Automat zlokalizowany przy sklepie Meble Bodzio" }, "geometry": { "type": "Point", "coordinates": [ 17.216503431541959, 52.815533074670661 ] } },
{ "type": "Feature", "properties": { "L.p.": 35, "X": 52.810580675170108, "Y": 17.220343995447568, "Adres": "ul. Nad Nielbą 37A; 62-100 Wągrowiec", "Typ": "Automat paczkowy", "Nazwa": "ORLEN Paczka", "Operator usługi": "ORLEN Paczka", "Godziny otwarcia": "Całodobowy 24/7", "Opis lokalizacji": "Automat zlokalizowany przy skrzyżowaniu ul.Nad Nielbą i Rzeczna" }, "geometry": { "type": "Point", "coordinates": [ 17.220343995447568, 52.810580675170108 ] } },
{ "type": "Feature", "properties": { "L.p.": 36, "X": 52.807437621952118, "Y": 17.19197652202536, "Adres": "ul. Opacka 23; 62-100 Wągrowiec", "Typ": "Automat paczkowy", "Nazwa": "Paczkomat InPost", "Operator usługi": "InPost", "Godziny otwarcia": "Całodobowy 24/7", "Opis lokalizacji": "Automat zlokalizowany przy sklepie Dino" }, "geometry": { "type": "Point", "coordinates": [ 17.19197652202536, 52.807437621952118 ] } },
{ "type": "Feature", "properties": { "L.p.": 37, "X": 52.809610956393563, "Y": 17.211819587589702, "Adres": "ul. Pałucka 4; 62-100 Wągrowiec", "Typ": "Automat paczkowy", "Nazwa": "Paczkomat InPost", "Operator usługi": "InPost", "Godziny otwarcia": "Całodobowy 24/7", "Opis lokalizacji": "Automat zlokalizowany przy sklepie Kaufland" }, "geometry": { "type": "Point", "coordinates": [ 17.211819587589702, 52.809610956393563 ] } },
{ "type": "Feature", "properties": { "L.p.": 38, "X": 52.798940342533534, "Y": 17.20114596757865, "Adres": "ul. P. E. Strzeleckiego 16A; 62-100 Wągrowiec", "Typ": "Automat paczkowy", "Nazwa": "Paczkomat InPost", "Operator usługi": "InPost", "Godziny otwarcia": "Całodobowy 24/7", "Opis lokalizacji": "Automat zlokalizowany przy sklepie Bimex/PSB Mrówka przy Sklepie Polskim" }, "geometry": { "type": "Point", "coordinates": [ 17.20114596757865, 52.798940342533534 ] } },
{ "type": "Feature", "properties": { "L.p.": 39, "X": 52.80716983665873, "Y": 17.198652209037842, "Adres": "ul. Pocztowa 5; 62-100 Wągrowiec", "Typ": "Automat paczkowy", "Nazwa": "ORLEN Paczka", "Operator usługi": "ORLEN Paczka", "Godziny otwarcia": "Całodobowy 24/7", "Opis lokalizacji": "Automat zlokalizowany przy sklepie Lawenda" }, "geometry": { "type": "Point", "coordinates": [ 17.198652209037842, 52.80716983665873 ] } },
{ "type": "Feature", "properties": { "L.p.": 40, "X": 52.807216357526165, "Y": 17.19866990930824, "Adres": "ul. Pocztowa 5; 62-100 Wągrowiec", "Typ": "Automat paczkowy", "Nazwa": "DPD Pickup", "Operator usługi": "DPD", "Godziny otwarcia": "Całodobowy 24/7", "Opis lokalizacji": "Automat zlokalizowany przy sklepie Lawenda" }, "geometry": { "type": "Point", "coordinates": [ 17.19866990930824, 52.807216357526165 ] } },
{ "type": "Feature", "properties": { "L.p.": 41, "X": 52.807140528485526, "Y": 17.198512915577055, "Adres": "ul. Pocztowa 5; 62-100 Wągrowiec", "Typ": "Automat paczkowy", "Nazwa": "DHL BOX 24/7", "Operator usługi": "DHL", "Godziny otwarcia": "Całodobowy 24/7", "Opis lokalizacji": "Automat zlokalizowany przy sklepie Lawenda" }, "geometry": { "type": "Point", "coordinates": [ 17.198512915577055, 52.807140528485526 ] } },
{ "type": "Feature", "properties": { "L.p.": 42, "X": 52.809065884270701, "Y": 17.210169101091989, "Adres": "ul. Przemysłowa 34; 62-100 Wągrowiec", "Typ": "Automat paczkowy", "Nazwa": "DPD Pickup", "Operator usługi": "DPD", "Godziny otwarcia": "Całodobowy 24/7", "Opis lokalizacji": "Automat zlokalizowany przy sklepie Netto" }, "geometry": { "type": "Point", "coordinates": [ 17.210169101091989, 52.809065884270701 ] } },
{ "type": "Feature", "properties": { "L.p.": 43, "X": 52.817239822502685, "Y": 17.233236496645858, "Adres": "ul. Rgielska 59; 62-100 Wągrowiec", "Typ": "Automat paczkowy", "Nazwa": "Paczkomat InPost", "Operator usługi": "InPost", "Godziny otwarcia": "Całodobowy 24/7", "Opis lokalizacji": "Automat zlokalizowany przy sklepie Dino" }, "geometry": { "type": "Point", "coordinates": [ 17.233236496645858, 52.817239822502685 ] } },
{ "type": "Feature", "properties": { "L.p.": 44, "X": 52.806214717415543, "Y": 17.180822661476029, "Adres": "ul. Rogozińska 47; 62-100 Wągrowiec", "Typ": "Automat paczkowy", "Nazwa": "Paczkomat InPost", "Operator usługi": "InPost", "Godziny otwarcia": "Całodobowy 24/7", "Opis lokalizacji": "Automat zlokalizowany przy stacji paliwowej PITEREK" }, "geometry": { "type": "Point", "coordinates": [ 17.180822661476029, 52.806214717415543 ] } },
{ "type": "Feature", "properties": { "L.p.": 45, "X": 52.796243478577985, "Y": 17.18505975976063, "Adres": "ul. Skocka 49; 62-100 Wągrowiec", "Typ": "Automat paczkowy", "Nazwa": "Paczkomat InPost", "Operator usługi": "InPost", "Godziny otwarcia": "Całodobowy 24/7", "Opis lokalizacji": "Automat zlokalizowany przy stacji benzynowej Hil Gaz" }, "geometry": { "type": "Point", "coordinates": [ 17.18505975976063, 52.796243478577985 ] } },
{ "type": "Feature", "properties": { "L.p.": 46, "X": 52.813970840091756, "Y": 17.205613328425624, "Adres": "ul. Słowackiego 7B; 62-100 Wągrowiec", "Typ": "Automat paczkowy", "Nazwa": "ORLEN Paczka", "Operator usługi": "ORLEN Paczka", "Godziny otwarcia": "Całodobowy 24/7", "Opis lokalizacji": "Automat zlokalizowany przy sklepie Żabka" }, "geometry": { "type": "Point", "coordinates": [ 17.205613328425624, 52.813970840091756 ] } },
{ "type": "Feature", "properties": { "L.p.": 47, "X": 52.814202635542891, "Y": 17.205368827680889, "Adres": "ul. Słowackiego 9; 62-100 Wągrowiec", "Typ": "Automat paczkowy", "Nazwa": "DPD Pickup", "Operator usługi": "DPD", "Godziny otwarcia": "Całodobowy 24/7", "Opis lokalizacji": "Automat zlokalizowany przy sklepie rybnym" }, "geometry": { "type": "Point", "coordinates": [ 17.205368827680889, 52.814202635542891 ] } },
{ "type": "Feature", "properties": { "L.p.": 48, "X": 52.814224086987188, "Y": 17.205534457216622, "Adres": "ul. Słowackiego 9; 62-100 Wągrowiec", "Typ": "Automat paczkowy", "Nazwa": "One Box by Allegro", "Operator usługi": "Allegro", "Godziny otwarcia": "Całodobowy 24/7", "Opis lokalizacji": "Automat zlokalizowany przy sklepie Żabka" }, "geometry": { "type": "Point", "coordinates": [ 17.205534457216622, 52.814224086987188 ] } },
{ "type": "Feature", "properties": { "L.p.": 49, "X": 52.809550276903316, "Y": 17.225914844085903, "Adres": "ul. Stanisława Mikołajczyka 62; 62-100 Wągrowiec", "Typ": "Automat paczkowy", "Nazwa": "DHL BOX 24/7", "Operator usługi": "DHL", "Godziny otwarcia": "Całodobowy 24/7", "Opis lokalizacji": "Automat zlokalizowany przy sklepie spożywczym" }, "geometry": { "type": "Point", "coordinates": [ 17.225914844085903, 52.809550276903316 ] } },
{ "type": "Feature", "properties": { "L.p.": 50, "X": 52.809626065194983, "Y": 17.225844454971966, "Adres": "ul. Stanisława Mikołajczyka 62; 62-100 Wągrowiec", "Typ": "Automat paczkowy", "Nazwa": "Pocztex", "Operator usługi": "Poczta Polska", "Godziny otwarcia": "Całodobowy 24/7", "Opis lokalizacji": "Automat zlokalizowany przy sklepie spożywczym" }, "geometry": { "type": "Point", "coordinates": [ 17.225844454971966, 52.809626065194983 ] } },
{ "type": "Feature", "properties": { "L.p.": 51, "X": 52.803880068215442, "Y": 17.222505016130199, "Adres": "ul. Straszewska 31; 62-100 Wągrowiec", "Typ": "Automat paczkowy", "Nazwa": "DHL BOX 24/7", "Operator usługi": "DHL", "Godziny otwarcia": "Całodobowy 24/7", "Opis lokalizacji": "Automat zlokalizowany przy sklepie Żabka" }, "geometry": { "type": "Point", "coordinates": [ 17.222505016130199, 52.803880068215442 ] } },
{ "type": "Feature", "properties": { "L.p.": 52, "X": 52.815945385060822, "Y": 17.215657889749671, "Adres": "ul. Św.Wojciecha 3; 62-100 Wągrowiec", "Typ": "Automat paczkowy", "Nazwa": "DHL BOX 24/7", "Operator usługi": "DHL", "Godziny otwarcia": "Całodobowy 24/7", "Opis lokalizacji": "Automat zlokalizowany przy restauracji" }, "geometry": { "type": "Point", "coordinates": [ 17.215657889749671, 52.815945385060822 ] } },
{ "type": "Feature", "properties": { "L.p.": 53, "X": 52.817511373545159, "Y": 17.21498301276533, "Adres": "ul. Św.Wojciecha 17; 62-100 Wągrowiec", "Typ": "Automat paczkowy", "Nazwa": "ORLEN Paczka", "Operator usługi": "ORLEN Paczka", "Godziny otwarcia": "Całodobowy 24/7", "Opis lokalizacji": "Automat zlokalizowany przy sklepie Chata Polska" }, "geometry": { "type": "Point", "coordinates": [ 17.21498301276533, 52.817511373545159 ] } },
{ "type": "Feature", "properties": { "L.p.": 54, "X": 52.799236476053167, "Y": 17.191487594613655, "Adres": "ul. Wierzbowa 1B; 62-100 Wągrowiec", "Typ": "Automat paczkowy", "Nazwa": "Paczkomat InPost", "Operator usługi": "InPost", "Godziny otwarcia": "Całodobowy 24/7", "Opis lokalizacji": "Automat zlokalizowany przy sklepie Dino" }, "geometry": { "type": "Point", "coordinates": [ 17.191487594613655, 52.799236476053167 ] } },
{ "type": "Feature", "properties": { "L.p.": 55, "X": 52.802976328365745, "Y": 17.223815509220987, "Adres": "ul. Zbigniewa Kuźmy 3; 62-100 Wągrowiec", "Typ": "Automat paczkowy", "Nazwa": "One Box by Allegro", "Operator usługi": "Allegro", "Godziny otwarcia": "Całodobowy 24/7", "Opis lokalizacji": "Automat zlokalizowany przy osiedlu mieszkaniowym" }, "geometry": { "type": "Point", "coordinates": [ 17.223815509220987, 52.802976328365745 ] } },
{ "type": "Feature", "properties": { "L.p.": 56, "X": 52.802505317729654, "Y": 17.225100372407056, "Adres": "ul. Zbigniewa Kuźmy 4; 62-100 Wągrowiec", "Typ": "Automat paczkowy", "Nazwa": "Paczkomat InPost", "Operator usługi": "InPost", "Godziny otwarcia": "Całodobowy 24/7", "Opis lokalizacji": "Automat zlokalizowany przy sklepie Dino" }, "geometry": { "type": "Point", "coordinates": [ 17.225100372407056, 52.802505317729654 ] } },
{ "type": "Feature", "properties": { "L.p.": 57, "X": 52.808010903307448, "Y": 17.229920121818864, "Adres": "ul. 11 Listopada 4; 62-100 Wągrowiec", "Typ": "Punkt partnerski", "Nazwa": "Sklep Żabka", "Operator usługi": "DPD", "Godziny otwarcia": "PN-SB 06:00-23:00 ND 09:00-20:00", "Opis lokalizacji": "-" }, "geometry": { "type": "Point", "coordinates": [ 17.229920121818864, 52.808010903307448 ] } },
{ "type": "Feature", "properties": { "L.p.": 58, "X": 52.808617864329783, "Y": 17.232113732119089, "Adres": "ul. 11 Listopada 16; 62-100 Wągrowiec", "Typ": "Punkt partnerski", "Nazwa": "Sklep Lidl", "Operator usługi": "DPD; GLS", "Godziny otwarcia": "PN-SB 06:00-22:00", "Opis lokalizacji": "-" }, "geometry": { "type": "Point", "coordinates": [ 17.232113732119089, 52.808617864329783 ] } },
{ "type": "Feature", "properties": { "L.p.": 59, "X": 52.807532237736986, "Y": 17.231646370246597, "Adres": "ul. 11 Listopada 20; 62-100 Wągrowiec", "Typ": "Punkt partnerski", "Nazwa": "Sklep Martes Sport", "Operator usługi": "DPD; GLS", "Godziny otwarcia": "PN-SB 09:00-20:00", "Opis lokalizacji": "-" }, "geometry": { "type": "Point", "coordinates": [ 17.231646370246597, 52.807532237736986 ] } },
{ "type": "Feature", "properties": { "L.p.": 60, "X": 52.80396181164619, "Y": 17.228258740109887, "Adres": "ul. 11 Listopada 22; 62-100 Wągrowiec", "Typ": "Punkt partnerski", "Nazwa": "Bricomarche", "Operator usługi": "InPost", "Godziny otwarcia": "PN-SB 08:00-20:00 ND 09:00-17:00", "Opis lokalizacji": "-" }, "geometry": { "type": "Point", "coordinates": [ 17.228258740109887, 52.80396181164619 ] } },
{ "type": "Feature", "properties": { "L.p.": 61, "X": 52.808571978099081, "Y": 17.184289514813887, "Adres": "ul. Bobrownicka 3; 62-100 Wągrowiec", "Typ": "Punkt partnerski", "Nazwa": "Sklep Żabka", "Operator usługi": "DPD; DHL; GLS; Poczta Polska", "Godziny otwarcia": "PN-SB 06:00-23:00 ND 10:00-22:00", "Opis lokalizacji": "-" }, "geometry": { "type": "Point", "coordinates": [ 17.184289514813887, 52.808571978099081 ] } },
{ "type": "Feature", "properties": { "L.p.": 62, "X": 52.80895457557687, "Y": 17.181847541589491, "Adres": "ul. Bobrownicka 15D; 62-100 Wągrowiec", "Typ": "Punkt partnerski", "Nazwa": "Pakersi Sklep Wielobranżowy", "Operator usługi": "InPost; Allegro; DHL", "Godziny otwarcia": "PN-SB 06:00-22:00 ND 09:00-21:00", "Opis lokalizacji": "-" }, "geometry": { "type": "Point", "coordinates": [ 17.181847541589491, 52.80895457557687 ] } },
{ "type": "Feature", "properties": { "L.p.": 63, "X": 52.807816905121278, "Y": 17.203772096632999, "Adres": "ul. Bydgoska 13; 62-100 Wągrowiec", "Typ": "Punkt partnerski", "Nazwa": "Furgonetka Punkt Punkt Handlowo Usługowy", "Operator usługi": "ORLEN Paczka; Allegro; DPD; DHL; GLS; UPS", "Godziny otwarcia": "PN-PT 09:00-18:00 SB 09:00-13:00", "Opis lokalizacji": "-" }, "geometry": { "type": "Point", "coordinates": [ 17.203772096632999, 52.807816905121278 ] } },
{ "type": "Feature", "properties": { "L.p.": 64, "X": 52.804628130585968, "Y": 17.219219519869505, "Adres": "ul. Franciszka Łakińskiego 1; 62-100 Wągrowiec", "Typ": "Punkt partnerski", "Nazwa": "Sklep ABC", "Operator usługi": "DPD; GLS; Poczta Polska; FedEx", "Godziny otwarcia": "PN-SB 06:00-20:00 ND 10:00-15:00", "Opis lokalizacji": "-" }, "geometry": { "type": "Point", "coordinates": [ 17.219219519869505, 52.804628130585968 ] } },
{ "type": "Feature", "properties": { "L.p.": 65, "X": 52.803828546529388, "Y": 17.19760193953126, "Adres": "ul. Gnieźnieńska 1a; 62-100 Wągrowiec", "Typ": "Punkt partnerski", "Nazwa": "Sklep Autoradio", "Operator usługi": "DPD", "Godziny otwarcia": "PN-PT 10:00-17:00", "Opis lokalizacji": "-" }, "geometry": { "type": "Point", "coordinates": [ 17.19760193953126, 52.803828546529388 ] } },
{ "type": "Feature", "properties": { "L.p.": 66, "X": 52.806304396383155, "Y": 17.229771947709391, "Adres": "ul. Ignacego Wegnera 2a; 62-100 Wągrowiec", "Typ": "Punkt partnerski", "Nazwa": "Sklep Żabka", "Operator usługi": "DPD; DHL; GLS; Poczta Polska", "Godziny otwarcia": "PN-SB 06:00-23:00 ND 09:00-22:00", "Opis lokalizacji": "-" }, "geometry": { "type": "Point", "coordinates": [ 17.229771947709391, 52.806304396383155 ] } },
{ "type": "Feature", "properties": { "L.p.": 67, "X": 52.804051986620102, "Y": 17.199340268955744, "Adres": "ul. Jana Pawła II 6; 62-100 Wągrowiec", "Typ": "Punkt partnerski", "Nazwa": "Sklep Lewiatan", "Operator usługi": "GLS; DPD; DHL", "Godziny otwarcia": "PN-SB 06:00-21:30", "Opis lokalizacji": "-" }, "geometry": { "type": "Point", "coordinates": [ 17.199340268955744, 52.804051986620102 ] } },
{ "type": "Feature", "properties": { "L.p.": 68, "X": 52.804911138074594, "Y": 17.199710017209959, "Adres": "ul. Jana Pawła II 18; 62-100 Wągrowiec", "Typ": "Punkt partnerski", "Nazwa": "Księgarnia Muszyńscy", "Operator usługi": "GLS", "Godziny otwarcia": "PN-PT 09:00-17:00 SB 9:00-13:00", "Opis lokalizacji": "-" }, "geometry": { "type": "Point", "coordinates": [ 17.199710017209959, 52.804911138074594 ] } },
{ "type": "Feature", "properties": { "L.p.": 69, "X": 52.805519488745524, "Y": 17.225825720756315, "Adres": "ul. Janowiecka 94; 62-100 Wągrowiec", "Typ": "Punkt partnerski", "Nazwa": "GRENE- Punkt MEEST BOX", "Operator usługi": "Allegro", "Godziny otwarcia": "PN-PT 7:30-17:00 SB 8:00-14:00", "Opis lokalizacji": "-" }, "geometry": { "type": "Point", "coordinates": [ 17.225825720756315, 52.805519488745524 ] } },
{ "type": "Feature", "properties": { "L.p.": 70, "X": 52.812297908007494, "Y": 17.213805283691858, "Adres": "ul. Kcyńska 18a; 62-100 Wągrowiec", "Typ": "Punkt partnerski", "Nazwa": "Sklep Lidl", "Operator usługi": "DPD; GLS", "Godziny otwarcia": "PN-SB 06:00-22:00", "Opis lokalizacji": "-" }, "geometry": { "type": "Point", "coordinates": [ 17.213805283691858, 52.812297908007494 ] } },
{ "type": "Feature", "properties": { "L.p.": 71, "X": 52.819124313075761, "Y": 17.224144256123232, "Adres": "ul. Kcyńska 98; 62-100 Wągrowiec", "Typ": "Punkt partnerski", "Nazwa": "Sklep Żabka", "Operator usługi": "DPD; DHL; GLS; Poczta Polska", "Godziny otwarcia": "PN-SB 06:00-23:00 ND 09:00-21:00", "Opis lokalizacji": "-" }, "geometry": { "type": "Point", "coordinates": [ 17.224144256123232, 52.819124313075761 ] } },
{ "type": "Feature", "properties": { "L.p.": 72, "X": 52.804968504755401, "Y": 17.198112196344216, "Adres": "ul. Klasztorna 4; 62-100 Wągrowiec", "Typ": "Punkt partnerski", "Nazwa": "Sklep Livio", "Operator usługi": "ORLEN Paczka", "Godziny otwarcia": "PN-SB 5:30-21:00 ND 8-20", "Opis lokalizacji": "-" }, "geometry": { "type": "Point", "coordinates": [ 17.198112196344216, 52.804968504755401 ] } },
{ "type": "Feature", "properties": { "L.p.": 73, "X": 52.808451063269715, "Y": 17.201096222380436, "Adres": "ul. Kolejowa 19A; 62-100 Wągrowiec", "Typ": "Punkt partnerski", "Nazwa": "Sklep spożywczy", "Operator usługi": "Allegro; DPD; ", "Godziny otwarcia": "PN-SB 7:00-22:00 ND 10:00-22:00", "Opis lokalizacji": "-" }, "geometry": { "type": "Point", "coordinates": [ 17.201096222380436, 52.808451063269715 ] } },
{ "type": "Feature", "properties": { "L.p.": 74, "X": 52.808336235456828, "Y": 17.204004319429629, "Adres": "ul. Kolejowa 2; 62-100 Wągrowiec", "Typ": "Punkt partnerski", "Nazwa": "Sklep Żabka", "Operator usługi": "DPD; DHL; GLS; Poczta Polska", "Godziny otwarcia": "PN-SB 06:00-23:00 ND 12:00-22:00", "Opis lokalizacji": "-" }, "geometry": { "type": "Point", "coordinates": [ 17.204004319429629, 52.808336235456828 ] } },
{ "type": "Feature", "properties": { "L.p.": 75, "X": 52.809752797062991, "Y": 17.19924869616742, "Adres": "ul. Kościuszki 6; 62-100 Wągrowiec", "Typ": "Punkt partnerski", "Nazwa": "Sklep Żabka", "Operator usługi": "DHL; Poczta Polska", "Godziny otwarcia": "PN-SB 06:00-23:00 ", "Opis lokalizacji": "-" }, "geometry": { "type": "Point", "coordinates": [ 17.19924869616742, 52.809752797062991 ] } },
{ "type": "Feature", "properties": { "L.p.": 76, "X": 52.813793853562395, "Y": 17.189682514245938, "Adres": "ul. Letnia 4; 62-100 Wągrowiec", "Typ": "Punkt partnerski", "Nazwa": "Punkt NieZapominajka; Biuro Tłumaczeń- Punkt MEEST BOX", "Operator usługi": "ORLEN Paczka; Allegro; DPD; GLS; Poczta Polska; UPS", "Godziny otwarcia": "PN-PT 08:00-17:00", "Opis lokalizacji": "-" }, "geometry": { "type": "Point", "coordinates": [ 17.189682514245938, 52.813793853562395 ] } },
{ "type": "Feature", "properties": { "L.p.": 77, "X": 52.814793999218416, "Y": 17.202927043872709, "Adres": "ul Libelta 1; 62-100 Wągrowiec", "Typ": "Punkt partnerski", "Nazwa": "Sklep Żabka", "Operator usługi": "DPD; DHL; GLS; Poczta Polska", "Godziny otwarcia": "PN-SB 06:00-23:00 ND 09:00-22:00", "Opis lokalizacji": "-" }, "geometry": { "type": "Point", "coordinates": [ 17.202927043872709, 52.814793999218416 ] } },
{ "type": "Feature", "properties": { "L.p.": 78, "X": 52.81336567621409, "Y": 17.210677531659019, "Adres": "ul. Lipowa 12; 62-100 Wągrowiec", "Typ": "Punkt partnerski", "Nazwa": "Sklep Delikatesy Centrum", "Operator usługi": "FedEx", "Godziny otwarcia": "PN-ND 06:00-21:00", "Opis lokalizacji": "-" }, "geometry": { "type": "Point", "coordinates": [ 17.210677531659019, 52.81336567621409 ] } },
{ "type": "Feature", "properties": { "L.p.": 79, "X": 52.812481513913731, "Y": 17.20236345961051, "Adres": "ul. Mieczysława Jeżyka 2a; 62-100 Wągrowiec", "Typ": "Punkt partnerski", "Nazwa": "Sklep Żabka", "Operator usługi": "DPD; DHL; GLS; Poczta Polska", "Godziny otwarcia": "PN-SB 06:00-23:00 ND 09:00-21:00", "Opis lokalizacji": "-" }, "geometry": { "type": "Point", "coordinates": [ 17.20236345961051, 52.812481513913731 ] } },
{ "type": "Feature", "properties": { "L.p.": 80, "X": 52.812958982777161, "Y": 17.206278316348918, "Adres": "ul. Mieczysława Jeżyka 48; 62-100 Wągrowiec", "Typ": "Punkt partnerski", "Nazwa": "Sklep Duży Ben", "Operator usługi": "InPost; DPD; GLS; Poczta Polska; FedEx", "Godziny otwarcia": "PN-SB 8:00-23:00 PT 8:00-01:00", "Opis lokalizacji": "-" }, "geometry": { "type": "Point", "coordinates": [ 17.206278316348918, 52.812958982777161 ] } },
{ "type": "Feature", "properties": { "L.p.": 81, "X": 52.817345810213851, "Y": 17.212463153789773, "Adres": "ul. Mikołaja Reja 61A; 62-100 Wągrowiec", "Typ": "Punkt partnerski", "Nazwa": "Sklep Nivo Alkohole", "Operator usługi": "ORLENpaczka; Allegro; GLS", "Godziny otwarcia": "PN-SB 10:00-17:00 SB 10:00-13:00", "Opis lokalizacji": "-" }, "geometry": { "type": "Point", "coordinates": [ 17.212463153789773, 52.817345810213851 ] } },
{ "type": "Feature", "properties": { "L.p.": 82, "X": 52.809348788051317, "Y": 17.212267704424907, "Adres": "ul. Pałucka 4; 62-100 Wągrowiec", "Typ": "Punkt partnerski", "Nazwa": "Sklep Kaufland", "Operator usługi": "DPD; DHL; GLS", "Godziny otwarcia": "PN-SB 06:00-22:00", "Opis lokalizacji": "-" }, "geometry": { "type": "Point", "coordinates": [ 17.212267704424907, 52.809348788051317 ] } },
{ "type": "Feature", "properties": { "L.p.": 83, "X": 52.798872491709496, "Y": 17.201264964249024, "Adres": "ul. P. E. Strzeleckiego 16A; 62-100 Wągrowiec", "Typ": "Punkt partnerski", "Nazwa": "Sklep spożywczy", "Operator usługi": "ORLEN Paczka; Allegro; DPD; DHL; UPS", "Godziny otwarcia": "PN-SB 07:00-19:00", "Opis lokalizacji": "-" }, "geometry": { "type": "Point", "coordinates": [ 17.201264964249024, 52.798872491709496 ] } },
{ "type": "Feature", "properties": { "L.p.": 84, "X": 52.815369922741915, "Y": 17.220306220363447, "Adres": "ul. Rgielska 5; 62-100 Wągrowiec", "Typ": "Punkt partnerski", "Nazwa": "Sklep Żabka", "Operator usługi": "DPD; DHL; GLS; Poczta Polska", "Godziny otwarcia": "PN-SB 06:00-23:00 ND 09:00-21:00", "Opis lokalizacji": "-" }, "geometry": { "type": "Point", "coordinates": [ 17.220306220363447, 52.815369922741915 ] } },
{ "type": "Feature", "properties": { "L.p.": 85, "X": 52.806996899661087, "Y": 17.20003507450836, "Adres": "ul. Rynek 11; 62-100 Wągrowiec", "Typ": "Punkt partnerski", "Nazwa": "Sklep Żabka", "Operator usługi": "DPD; DHL; GLS; Poczta Polska", "Godziny otwarcia": "PN-SB 06:00-23:00 ND 10:00-22:00", "Opis lokalizacji": "-" }, "geometry": { "type": "Point", "coordinates": [ 17.20003507450836, 52.806996899661087 ] } },
{ "type": "Feature", "properties": { "L.p.": 86, "X": 52.805952471831922, "Y": 17.199756269677593, "Adres": "ul. Rynek 1a; 62-100 Wągrowiec", "Typ": "Punkt partnerski", "Nazwa": "Sklep Gama", "Operator usługi": "DPD", "Godziny otwarcia": "PN-PT 10:00-18:00 SB 09:00-13:00", "Opis lokalizacji": "-" }, "geometry": { "type": "Point", "coordinates": [ 17.199756269677593, 52.805952471831922 ] } },
{ "type": "Feature", "properties": { "L.p.": 87, "X": 52.814134290554591, "Y": 17.205465616451225, "Adres": "ul. Słowackiego 9; 62-100 Wągrowiec", "Typ": "Punkt partnerski", "Nazwa": "Sklep Żabka", "Operator usługi": "DPD; DHL; GLS; Poczta Polska", "Godziny otwarcia": "PN-SB 06:00-23:00 ND 09:00-21:00", "Opis lokalizacji": "-" }, "geometry": { "type": "Point", "coordinates": [ 17.205465616451225, 52.814134290554591 ] } },
{ "type": "Feature", "properties": { "L.p.": 88, "X": 52.804022652998711, "Y": 17.222494578414956, "Adres": "ul. Straszewska 31; 62-100 Wągrowiec", "Typ": "Punkt partnerski", "Nazwa": "Sklep Żabka", "Operator usługi": "DPD; GLS; Poczta Polska", "Godziny otwarcia": "PN-SB 06:00-23:00 ND 09:00-21:00", "Opis lokalizacji": "-" }, "geometry": { "type": "Point", "coordinates": [ 17.222494578414956, 52.804022652998711 ] } },
{ "type": "Feature", "properties": { "L.p.": 89, "X": 52.811852012700918, "Y": 17.203322655637589, "Adres": "ul. Średnia 41; 62-100 Wągrowiec", "Typ": "Punkt partnerski", "Nazwa": "Księgarnia Sifaka Post & Books", "Operator usługi": "InPost; ORLEN Paczka; Allegro; DPD; GLS; UPS", "Godziny otwarcia": "PN-PT 10:00-18:00 SB 10:00-14:00", "Opis lokalizacji": "-" }, "geometry": { "type": "Point", "coordinates": [ 17.203322655637589, 52.811852012700918 ] } },
{ "type": "Feature", "properties": { "L.p.": 90, "X": 52.816528180743632, "Y": 17.221373395201393, "Adres": "ul. Zielona 1; 62-100 Wągrowiec", "Typ": "Punkt partnerski", "Nazwa": "Sklep ABC", "Operator usługi": "DPD; DHL; FedEx; GLS; Poczta Polska", "Godziny otwarcia": "PN-SB 06:00-20:00 ND 10:00-14:00", "Opis lokalizacji": "-" }, "geometry": { "type": "Point", "coordinates": [ 17.221373395201393, 52.816528180743632 ] } },
{ "type": "Feature", "properties": { "L.p.": 91, "X": 52.800431441110817, "Y": 17.197586454670915, "Adres": "ul. Główna Osiedla 2a; 62-100 Wągrowiec", "Typ": "Placówka pocztowa", "Nazwa": "Placówka pocztowa", "Operator usługi": "Poczta Polska", "Godziny otwarcia": "PN 13:00-16:00; 16:30-20:00 WT-PT 10:00-13:00; 13:30-17:00", "Opis lokalizacji": "-" }, "geometry": { "type": "Point", "coordinates": [ 17.197586454670915, 52.800431441110817 ] } },
{ "type": "Feature", "properties": { "L.p.": 92, "X": 52.81424772105607, "Y": 17.206202535124671, "Adres": "ul Libelta 20; 62-100 Wągrowiec", "Typ": "Placówka pocztowa", "Nazwa": "Placówka pocztowa", "Operator usługi": "Poczta Polska", "Godziny otwarcia": "PN 13:00-16:00; 16:30-20:00 WT-PT 10:00-13:00; 13:30-17:00", "Opis lokalizacji": "-" }, "geometry": { "type": "Point", "coordinates": [ 17.206202535124671, 52.81424772105607 ] } },
{ "type": "Feature", "properties": { "L.p.": 93, "X": 52.8080642197774, "Y": 17.198635167282156, "Adres": "ul. Pocztowa 12; 62-100 Wągrowiec", "Typ": "Placówka pocztowa", "Nazwa": "Placówka pocztowa", "Operator usługi": "Poczta Polska", "Godziny otwarcia": "PN 12:00-20:00; WT-CZW 10:00-18:00 PT 8:00-16:00", "Opis lokalizacji": "-" }, "geometry": { "type": "Point", "coordinates": [ 17.198635167282156, 52.8080642197774 ] } },
{ "type": "Feature", "properties": { "L.p.": 94, "X": 52.794177383798782, "Y": 17.219158296598664, "Adres": "ul. 11 Listopada 30; 62-100 Wągrowiec", "Typ": "Stacja paliw", "Nazwa": "Stacja paliw ORLEN", "Operator usługi": "ORLEN Paczka; DPD; DHL; GLS; Poczta Polska", "Godziny otwarcia": "Całodobowy 24/7", "Opis lokalizacji": "-" }, "geometry": { "type": "Point", "coordinates": [ 17.219158296598664, 52.794177383798782 ] } },
{ "type": "Feature", "properties": { "L.p.": 95, "X": 52.808563619477056, "Y": 17.210583518272426, "Adres": "ul. Janowiecka 27; 62-100 Wągrowiec", "Typ": "Stacja paliw", "Nazwa": "Stacja paliw SHELL", "Operator usługi": "DPD; DHL; GLS; FedEx", "Godziny otwarcia": "Całodobowy 24/7", "Opis lokalizacji": "-" }, "geometry": { "type": "Point", "coordinates": [ 17.210583518272426, 52.808563619477056 ] } },
{ "type": "Feature", "properties": { "L.p.": 96, "X": 52.815458890182349, "Y": 17.218171071841766, "Adres": "ul. Kcyńska 56; 62-100 Wągrowiec", "Typ": "Stacja paliw", "Nazwa": "Stacja paliw ORLEN", "Operator usługi": "ORLEN Paczka", "Godziny otwarcia": "Całodobowy 24/7", "Opis lokalizacji": "-" }, "geometry": { "type": "Point", "coordinates": [ 17.218171071841766, 52.815458890182349 ] } }
]
}
